{
"type": "FeatureCollection",
"name": "Offices",
"crs": { "type": "name", "properties": { "name": "urn:ogc:def:crs:OGC:1.3:CRS84" } },
"features": [
{ "type": "Feature", "properties": { "name": "Wajir" }, "geometry": { "type": "Point", "coordinates": [ 40.0688889, 1.7472222 ] } },
{ "type": "Feature", "properties": { "name": "Busia" }, "geometry": { "type": "Point", "coordinates": [ 34.3052778, 0.3936111 ] } },
{ "type": "Feature", "properties": { "name": "Lodwar" }, "geometry": { "type": "Point", "coordinates": [ 35.6, 3.1166667 ] } },
{ "type": "Feature", "properties": { "name": "Narok" }, "geometry": { "type": "Point", "coordinates": [ 35.8666667, -1.0833333 ] } },
{ "type": "Feature", "properties": { "name": "Nyeri" }, "geometry": { "type": "Point", "coordinates": [ 36.95, -0.4166667 ] } },
{ "type": "Feature", "properties": { "name": "Marsabit" }, "geometry": { "type": "Point", "coordinates": [ 37.9833333, 2.3333333 ] } },
{ "type": "Feature", "properties": { "name": "Lamu" }, "geometry": { "type": "Point", "coordinates": [ 40.9033333, -2.2783333 ] } },
{ "type": "Feature", "properties": { "name": "Makueni" }, "geometry": { "type": "Point", "coordinates": [ 37.6166667, -1.8 ] } },
{ "type": "Feature", "properties": { "name": "Voi" }, "geometry": { "type": "Point", "coordinates": [ 38.5666667, -3.3833333 ] } },
{ "type": "Feature", "properties": { "name": "Kisumu" }, "geometry": { "type": "Point", "coordinates": [ 34.75, -0.1 ] } },
{ "type": "Feature", "properties": { "name": "Mombasa" }, "geometry": { "type": "Point", "coordinates": [ 39.6666667, -4.05 ] } },
{ "type": "Feature", "properties": { "name": "Thika" }, "geometry": { "type": "Point", "coordinates": [ 37.0833333, -1.05 ] } },
{ "type": "Feature", "properties": { "name": "Nairobi" }, "geometry": { "type": "Point", "coordinates": [ 36.8166667, -1.2833333 ] } }
]
}
